[
  {
    "city": "Helsinki",
    "lat": "60.1676",
    "lng": "24.9421",
    "temp": "64.4"
  },
  {
    "city": "Stockholm",
    "lat": "59.3293",
    "lng": "18.0686",
    "temp": "68.0"
  },
  {
    "city": "Copenhagen",
    "lat": "55.6761",
    "lng": "12.5683",
    "temp": "62.6"
  },
  {
    "city": "Oslo",
    "lat": "59.9139",
    "lng": "10.7522",
    "temp": "60.8"
  },
  {
    "city": "Berlin",
    "lat": "52.5200",
    "lng": "13.4050",
    "temp": "71.6"
  }
]
